{"data":[{"id":"1200530070003169","created_time":"2016-08-08T16:02:44+0000","place":{"id":"108081209214649","location":{"city":"Las Vegas","country":"United States","latitude":36.175,"longitude":-115.136,"state":"NV"},"name":"Las Vegas, Nevada"}},{"id":"1131719506884226","created_time":"2016-05-02T04:40:12+0000","place":{"id":"144583188896732","location":{"city":"Geraldine","country":"United States","latitude":34.401347895128,"longitude":-86.066595143346,"state":"AL","street":"969 COUNTY ROAD 144","zip":"35975"},"name":"High Falls Park"}},{"id":"1131022880287222","created_time":"2016-05-01T03:23:43+0000","place":{"id":"144583188896732","location":{"city":"Geraldine","country":"United States","latitude":34.401347895128,"longitude":-86.066595143346,"state":"AL","street":"969 COUNTY ROAD 144","zip":"35975"},"name":"High Falls Park"}},{"id":"1039924319397079","created_time":"2015-12-14T03:01:56+0000","place":{"id":"115118348510011","location":{"city":"Huntsville","country":"United States","latitude":34.727175348158,"longitude":-86.590090474126,"state":"AL","street":"700 Monroe St SW","zip":"35801"},"name":"Von Braun Center"}},{"id":"1021617427894435","created_time":"2015-11-08T00:12:52+0000","place":{"id":"191211187576498","location":{"city":"Huntsville","country":"United States","latitude":34.695726769787,"longitude":-86.590889289748,"state":"AL","street":"3185 Leeman Ferry Rd SW","zip":"35801"},"name":"Huntsville Iceplex"}},{"id":"973973009325544","created_time":"2015-08-10T06:30:18+0000","place":{"id":"161564467243390","location":{"city":"Las Vegas","country":"United States","latitude":36.110784253948,"located_in":"107717949250751","longitude":-115.17267054936,"state":"NV","zip":"89109"},"name":"Grand Canyon National Park"}},{"id":"969983519724493","created_time":"2015-08-02T06:56:24+0000","place":{"id":"114952118516947","location":{"city":"San Francisco","country":"United States","latitude":37.775,"longitude":-122.418,"state":"CA"},"name":"San Francisco, California"}},{"id":"921715354551310","created_time":"2015-04-04T06:30:00+0000","place":{"id":"376952459124314","location":{"city":"Lalitpur","country":"Nepal","latitude":27.682283488083,"longitude":85.318526029587,"street":"Krishna Gali","zip":"44600"},"name":"Cafe Aamu"}},{"id":"921715351217977","created_time":"2015-04-04T06:30:00+0000","place":{"id":"376952459124314","location":{"city":"Lalitpur","country":"Nepal","latitude":27.682283488083,"longitude":85.318526029587,"street":"Krishna Gali","zip":"44600"},"name":"Cafe Aamu"}},{"id":"862884273767752","created_time":"2014-12-07T15:44:43+0000","place":{"id":"376952459124314","location":{"city":"Lalitpur","country":"Nepal","latitude":27.682283488083,"longitude":85.318526029587,"street":"Krishna Gali","zip":"44600"},"name":"Cafe Aamu"}},{"id":"792013380854842","created_time":"2014-09-19T11:11:20+0000","place":{"id":"707039879318624","location":{"city":"Kathmandu","country":"Nepal","latitude":27.586813932965,"longitude":85.255046258052,"street":"Chhaimale","zip":"00000"},"name":"Chhaimale Resort"}},{"id":"780775511978629","created_time":"2014-08-28T12:12:31+0000","place":{"id":"156124691215528","location":{"latitude":27.571117410728,"longitude":85.582646429353,"zip":"00977"},"name":"Namo Buddha Monastery"}},{"id":"778072822248898","created_time":"2014-08-23T12:29:54+0000","place":{"id":"332656196892860","location":{"city":"Kathmandu","country":"Nepal","latitude":27.71509069,"longitude":85.31092591},"name":"Mahabir Dai Ko Restrurent Thamel"}},{"id":"768269786562535","created_time":"2014-08-04T12:58:19+0000","place":{"id":"247380758609419","location":{"city":"Kathmandu","country":"Nepal","latitude":27.707668652961,"longitude":85.325565716361,"street":"kamalpokhari"},"name":"Islington College"}},{"id":"753857608003753","created_time":"2014-07-08T16:20:42+0000","place":{"id":"199167563504934","location":{"latitude":27.6826334,"longitude":85.3148375},"name":"Bakhundol"}},{"id":"721710417885139","created_time":"2014-05-16T04:54:34+0000","place":{"id":"259261944194879","location":{"city":"Kathmandu","country":"Nepal","latitude":27.699571309688,"longitude":85.312898474483,"street":"Sundhara, Kathmandu, Nepal"},"name":"QFX Civil Mall"}},{"id":"697634290292752","created_time":"2014-04-02T12:51:46+0000","place":{"id":"259261944194879","location":{"city":"Kathmandu","country":"Nepal","latitude":27.699571309688,"longitude":85.312898474483,"street":"Sundhara, Kathmandu, Nepal"},"name":"QFX Civil Mall"}},{"id":"688810017841846","created_time":"2014-03-15T14:29:00+0000","place":{"id":"181286925263576","location":{"city":"Lalitpur","country":"Nepal","latitude":27.681961101807,"longitude":85.319793949417,"street":"Pulchowk"},"name":"Pulchowk Engineering Campus"}},{"id":"667529859969862","created_time":"2014-02-02T11:45:41+0000","place":{"id":"104052812964372","location":{"city":"Pokhara","country":"Nepal","latitude":28.2639,"longitude":83.9722},"name":"Pokhara, Nepal"}},{"id":"646770568712458","created_time":"2013-12-26T14:44:26+0000","place":{"id":"426742357444936","location":{"city":"Kathmandu","country":"Nepal","latitude":27.716725636861,"longitude":85.3102145327,"street":"Thamel","zip":"44616"},"name":"Everest Irish Pub"}},{"id":"649524698437045","created_time":"2013-12-23T06:30:00+0000","place":{"id":"112869382061213","location":{"city":"Kakani","country":"Nepal","latitude":27.8167,"longitude":85.25},"name":"Kakani"}},{"id":"597507866972062","created_time":"2013-09-25T03:51:25+0000","place":{"id":"321883207898197","location":{"city":"Kathmandu","country":"Nepal","latitude":27.69183892,"longitude":85.31961736},"name":"Trade Tower Business Centre"}},{"id":"573602216029294","created_time":"2013-08-09T11:02:13+0000","place":{"id":"106085869430478","location":{"city":"Kathmandu","country":"Nepal","latitude":27.7,"longitude":85.3333},"name":"Kathmandu, Nepal"}},{"id":"554877387901777","created_time":"2013-06-29T17:07:14+0000","place":{"id":"397817923614861","location":{"city":"Kathmandu","country":"Nepal","latitude":27.715018692506,"located_in":"109596519161343","longitude":85.31093288567,"street":"Thamel","zip":"44600"},"name":"Mahabir's Center for Nepal Connection"}},{"id":"555475071175342","created_time":"2013-06-16T06:30:00+0000","place":{"id":"279388862129521","location":{"city":"Kathmandu","country":"Nepal","latitude":27.692654905,"longitude":85.31996807,"street":"THAPATHALI"},"name":"Thapathali Trade Tower"}},{"id":"518888214834028","created_time":"2013-04-07T15:46:29+0000","place":{"id":"226785327383997","location":{"latitude":27.677747516094,"longitude":85.290950351411},"name":"T.U Cricket Ground"}},{"id":"464027830320067","created_time":"2012-12-11T17:54:00+0000","place":{"id":"181286925263576","location":{"city":"Lalitpur","country":"Nepal","latitude":27.681961101807,"longitude":85.319793949417,"street":"Pulchowk"},"name":"Pulchowk Engineering Campus"}},{"id":"462262237163293","created_time":"2012-12-08T15:31:42+0000","place":{"id":"265041430204378","location":{"city":"Kathmandu","country":"Nepal","latitude":27.704885162987,"longitude":85.304719798219},"name":"White Ghumba"}},{"id":"445406745515509","created_time":"2012-10-28T03:52:15+0000","place":{"id":"410488692298617","location":{"city":"Morelia","country":"Mexico","latitude":19.69064044768,"longitude":-101.17816732096},"name":"Freedom"}}],"paging":{"cursors":{"before":"MTIwMDUzMDA3MDAwMzE2OQZDZD","after":"NDQ1NDA2NzQ1NTE1NTA5"}}}{"data":[{"id":"1200530070003169","created_time":"2016-08-08T16:02:44+0000","place":{"id":"108081209214649","location":{"city":"Las Vegas","country":"United States","latitude":36.175,"longitude":-115.136,"state":"NV"},"name":"Las Vegas, Nevada"}},{"id":"1131719506884226","created_time":"2016-05-02T04:40:12+0000","place":{"id":"144583188896732","location":{"city":"Geraldine","country":"United States","latitude":34.401347895128,"longitude":-86.066595143346,"state":"AL","street":"969 COUNTY ROAD 144","zip":"35975"},"name":"High Falls Park"}},{"id":"1131022880287222","created_time":"2016-05-01T03:23:43+0000","place":{"id":"144583188896732","location":{"city":"Geraldine","country":"United States","latitude":34.401347895128,"longitude":-86.066595143346,"state":"AL","street":"969 COUNTY ROAD 144","zip":"35975"},"name":"High Falls Park"}},{"id":"1039924319397079","created_time":"2015-12-14T03:01:56+0000","place":{"id":"115118348510011","location":{"city":"Huntsville","country":"United States","latitude":34.727175348158,"longitude":-86.590090474126,"state":"AL","street":"700 Monroe St SW","zip":"35801"},"name":"Von Braun Center"}},{"id":"1021617427894435","created_time":"2015-11-08T00:12:52+0000","place":{"id":"191211187576498","location":{"city":"Huntsville","country":"United States","latitude":34.695726769787,"longitude":-86.590889289748,"state":"AL","street":"3185 Leeman Ferry Rd SW","zip":"35801"},"name":"Huntsville Iceplex"}},{"id":"973973009325544","created_time":"2015-08-10T06:30:18+0000","place":{"id":"161564467243390","location":{"city":"Las Vegas","country":"United States","latitude":36.110784253948,"located_in":"107717949250751","longitude":-115.17267054936,"state":"NV","zip":"89109"},"name":"Grand Canyon National Park"}},{"id":"969983519724493","created_time":"2015-08-02T06:56:24+0000","place":{"id":"114952118516947","location":{"city":"San Francisco","country":"United States","latitude":37.775,"longitude":-122.418,"state":"CA"},"name":"San Francisco, California"}},{"id":"921715354551310","created_time":"2015-04-04T06:30:00+0000","place":{"id":"376952459124314","location":{"city":"Lalitpur","country":"Nepal","latitude":27.682283488083,"longitude":85.318526029587,"street":"Krishna Gali","zip":"44600"},"name":"Cafe Aamu"}},{"id":"921715351217977","created_time":"2015-04-04T06:30:00+0000","place":{"id":"376952459124314","location":{"city":"Lalitpur","country":"Nepal","latitude":27.682283488083,"longitude":85.318526029587,"street":"Krishna Gali","zip":"44600"},"name":"Cafe Aamu"}},{"id":"862884273767752","created_time":"2014-12-07T15:44:43+0000","place":{"id":"376952459124314","location":{"city":"Lalitpur","country":"Nepal","latitude":27.682283488083,"longitude":85.318526029587,"street":"Krishna Gali","zip":"44600"},"name":"Cafe Aamu"}},{"id":"792013380854842","created_time":"2014-09-19T11:11:20+0000","place":{"id":"707039879318624","location":{"city":"Kathmandu","country":"Nepal","latitude":27.586813932965,"longitude":85.255046258052,"street":"Chhaimale","zip":"00000"},"name":"Chhaimale Resort"}},{"id":"780775511978629","created_time":"2014-08-28T12:12:31+0000","place":{"id":"156124691215528","location":{"latitude":27.571117410728,"longitude":85.582646429353,"zip":"00977"},"name":"Namo Buddha Monastery"}},{"id":"778072822248898","created_time":"2014-08-23T12:29:54+0000","place":{"id":"332656196892860","location":{"city":"Kathmandu","country":"Nepal","latitude":27.71509069,"longitude":85.31092591},"name":"Mahabir Dai Ko Restrurent Thamel"}},{"id":"768269786562535","created_time":"2014-08-04T12:58:19+0000","place":{"id":"247380758609419","location":{"city":"Kathmandu","country":"Nepal","latitude":27.707668652961,"longitude":85.325565716361,"street":"kamalpokhari"},"name":"Islington College"}},{"id":"753857608003753","created_time":"2014-07-08T16:20:42+0000","place":{"id":"199167563504934","location":{"latitude":27.6826334,"longitude":85.3148375},"name":"Bakhundol"}},{"id":"721710417885139","created_time":"2014-05-16T04:54:34+0000","place":{"id":"259261944194879","location":{"city":"Kathmandu","country":"Nepal","latitude":27.699571309688,"longitude":85.312898474483,"street":"Sundhara, Kathmandu, Nepal"},"name":"QFX Civil Mall"}},{"id":"697634290292752","created_time":"2014-04-02T12:51:46+0000","place":{"id":"259261944194879","location":{"city":"Kathmandu","country":"Nepal","latitude":27.699571309688,"longitude":85.312898474483,"street":"Sundhara, Kathmandu, Nepal"},"name":"QFX Civil Mall"}},{"id":"688810017841846","created_time":"2014-03-15T14:29:00+0000","place":{"id":"181286925263576","location":{"city":"Lalitpur","country":"Nepal","latitude":27.681961101807,"longitude":85.319793949417,"street":"Pulchowk"},"name":"Pulchowk Engineering Campus"}},{"id":"667529859969862","created_time":"2014-02-02T11:45:41+0000","place":{"id":"104052812964372","location":{"city":"Pokhara","country":"Nepal","latitude":28.2639,"longitude":83.9722},"name":"Pokhara, Nepal"}},{"id":"646770568712458","created_time":"2013-12-26T14:44:26+0000","place":{"id":"426742357444936","location":{"city":"Kathmandu","country":"Nepal","latitude":27.716725636861,"longitude":85.3102145327,"street":"Thamel","zip":"44616"},"name":"Everest Irish Pub"}},{"id":"649524698437045","created_time":"2013-12-23T06:30:00+0000","place":{"id":"112869382061213","location":{"city":"Kakani","country":"Nepal","latitude":27.8167,"longitude":85.25},"name":"Kakani"}},{"id":"597507866972062","created_time":"2013-09-25T03:51:25+0000","place":{"id":"321883207898197","location":{"city":"Kathmandu","country":"Nepal","latitude":27.69183892,"longitude":85.31961736},"name":"Trade Tower Business Centre"}},{"id":"573602216029294","created_time":"2013-08-09T11:02:13+0000","place":{"id":"106085869430478","location":{"city":"Kathmandu","country":"Nepal","latitude":27.7,"longitude":85.3333},"name":"Kathmandu, Nepal"}},{"id":"554877387901777","created_time":"2013-06-29T17:07:14+0000","place":{"id":"397817923614861","location":{"city":"Kathmandu","country":"Nepal","latitude":27.715018692506,"located_in":"109596519161343","longitude":85.31093288567,"street":"Thamel","zip":"44600"},"name":"Mahabir's Center for Nepal Connection"}},{"id":"555475071175342","created_time":"2013-06-16T06:30:00+0000","place":{"id":"279388862129521","location":{"city":"Kathmandu","country":"Nepal","latitude":27.692654905,"longitude":85.31996807,"street":"THAPATHALI"},"name":"Thapathali Trade Tower"}},{"id":"518888214834028","created_time":"2013-04-07T15:46:29+0000","place":{"id":"226785327383997","location":{"latitude":27.677747516094,"longitude":85.290950351411},"name":"T.U Cricket Ground"}},{"id":"464027830320067","created_time":"2012-12-11T17:54:00+0000","place":{"id":"181286925263576","location":{"city":"Lalitpur","country":"Nepal","latitude":27.681961101807,"longitude":85.319793949417,"street":"Pulchowk"},"name":"Pulchowk Engineering Campus"}},{"id":"462262237163293","created_time":"2012-12-08T15:31:42+0000","place":{"id":"265041430204378","location":{"city":"Kathmandu","country":"Nepal","latitude":27.704885162987,"longitude":85.304719798219},"name":"White Ghumba"}},{"id":"445406745515509","created_time":"2012-10-28T03:52:15+0000","place":{"id":"410488692298617","location":{"city":"Morelia","country":"Mexico","latitude":19.69064044768,"longitude":-101.17816732096},"name":"Freedom"}}],"paging":{"cursors":{"before":"MTIwMDUzMDA3MDAwMzE2OQZDZD","after":"NDQ1NDA2NzQ1NTE1NTA5"}}}{"data":[{"id":"1200530070003169","created_time":"2016-08-08T16:02:44+0000","place":{"id":"108081209214649","location":{"city":"Las Vegas","country":"United States","latitude":36.175,"longitude":-115.136,"state":"NV"},"name":"Las Vegas, Nevada"}},{"id":"1131719506884226","created_time":"2016-05-02T04:40:12+0000","place":{"id":"144583188896732","location":{"city":"Geraldine","country":"United States","latitude":34.401347895128,"longitude":-86.066595143346,"state":"AL","street":"969 COUNTY ROAD 144","zip":"35975"},"name":"High Falls Park"}},{"id":"1131022880287222","created_time":"2016-05-01T03:23:43+0000","place":{"id":"144583188896732","location":{"city":"Geraldine","country":"United States","latitude":34.401347895128,"longitude":-86.066595143346,"state":"AL","street":"969 COUNTY ROAD 144","zip":"35975"},"name":"High Falls Park"}},{"id":"1039924319397079","created_time":"2015-12-14T03:01:56+0000","place":{"id":"115118348510011","location":{"city":"Huntsville","country":"United States","latitude":34.727175348158,"longitude":-86.590090474126,"state":"AL","street":"700 Monroe St SW","zip":"35801"},"name":"Von Braun Center"}},{"id":"1021617427894435","created_time":"2015-11-08T00:12:52+0000","place":{"id":"191211187576498","location":{"city":"Huntsville","country":"United States","latitude":34.695726769787,"longitude":-86.590889289748,"state":"AL","street":"3185 Leeman Ferry Rd SW","zip":"35801"},"name":"Huntsville Iceplex"}},{"id":"973973009325544","created_time":"2015-08-10T06:30:18+0000","place":{"id":"161564467243390","location":{"city":"Grand Canyon Village","country":"United States","latitude":36.110784253948,"located_in":"107717949250751","longitude":-115.17267054936,"state":"AZ","zip":"89109"},"name":"Grand Canyon National Park"}},{"id":"969983519724493","created_time":"2015-08-02T06:56:24+0000","place":{"id":"114952118516947","location":{"city":"San Francisco","country":"United States","latitude":37.775,"longitude":-122.418,"state":"CA"},"name":"San Francisco, California"}},{"id":"921715354551310","created_time":"2015-04-04T06:30:00+0000","place":{"id":"376952459124314","location":{"city":"Lalitpur","country":"Nepal","latitude":27.682283488083,"longitude":85.318526029587,"street":"Krishna Gali","zip":"44600"},"name":"Cafe Aamu"}},{"id":"921715351217977","created_time":"2015-04-04T06:30:00+0000","place":{"id":"376952459124314","location":{"city":"Lalitpur","country":"Nepal","latitude":27.682283488083,"longitude":85.318526029587,"street":"Krishna Gali","zip":"44600"},"name":"Cafe Aamu"}},{"id":"862884273767752","created_time":"2014-12-07T15:44:43+0000","place":{"id":"376952459124314","location":{"city":"Lalitpur","country":"Nepal","latitude":27.682283488083,"longitude":85.318526029587,"street":"Krishna Gali","zip":"44600"},"name":"Cafe Aamu"}},{"id":"792013380854842","created_time":"2014-09-19T11:11:20+0000","place":{"id":"707039879318624","location":{"city":"Kathmandu","country":"Nepal","latitude":27.586813932965,"longitude":85.255046258052,"street":"Chhaimale","zip":"00000"},"name":"Chhaimale Resort"}},{"id":"780775511978629","created_time":"2014-08-28T12:12:31+0000","place":{"id":"156124691215528","location":{"latitude":27.571117410728,"longitude":85.582646429353,"street":"Kavrepalanchok","zip":"00977"},"name":"Namo Buddha Monastery"}},{"id":"778072822248898","created_time":"2014-08-23T12:29:54+0000","place":{"id":"332656196892860","location":{"city":"Kathmandu","country":"Nepal","latitude":27.71509069,"longitude":85.31092591},"name":"Mahabir Dai Ko Restrurent Thamel"}},{"id":"768269786562535","created_time":"2014-08-04T12:58:19+0000","place":{"id":"247380758609419","location":{"city":"Kathmandu","country":"Nepal","latitude":27.707668652961,"longitude":85.325565716361,"street":"kamalpokhari"},"name":"Islington College"}},{"id":"753857608003753","created_time":"2014-07-08T16:20:42+0000","place":{"id":"199167563504934","location":{"latitude":27.6826334,"longitude":85.3148375},"name":"Bakhundol"}},{"id":"721710417885139","created_time":"2014-05-16T04:54:34+0000","place":{"id":"259261944194879","location":{"city":"Kathmandu","country":"Nepal","latitude":27.699571309688,"longitude":85.312898474483,"street":"Sundhara, Kathmandu, Nepal"},"name":"QFX Civil Mall"}},{"id":"697634290292752","created_time":"2014-04-02T12:51:46+0000","place":{"id":"259261944194879","location":{"city":"Kathmandu","country":"Nepal","latitude":27.699571309688,"longitude":85.312898474483,"street":"Sundhara, Kathmandu, Nepal"},"name":"QFX Civil Mall"}},{"id":"688810017841846","created_time":"2014-03-15T14:29:00+0000","place":{"id":"181286925263576","location":{"city":"Lalitpur","country":"Nepal","latitude":27.681961101807,"longitude":85.319793949417,"street":"Pulchowk, Lalitpur, Nepal"},"name":"Pulchowk Engineering Campus"}},{"id":"667529859969862","created_time":"2014-02-02T11:45:41+0000","place":{"id":"104052812964372","location":{"city":"Pokhara","country":"Nepal","latitude":28.2639,"longitude":83.9722,"zip":"33700 (WRPD), 33702, 33704, 33706, 33708, 33713"},"name":"Pokhara, Nepal"}},{"id":"646770568712458","created_time":"2013-12-26T14:44:26+0000","place":{"id":"426742357444936","location":{"city":"Kathmandu","country":"Nepal","latitude":27.716725636861,"longitude":85.3102145327,"street":"Thamel","zip":"44616"},"name":"Everest Irish Pub"}},{"id":"649524698437045","created_time":"2013-12-23T06:30:00+0000","place":{"id":"112869382061213","location":{"city":"Kakani","country":"Nepal","latitude":27.8167,"longitude":85.25},"name":"Kakani"}},{"id":"597507866972062","created_time":"2013-09-25T03:51:25+0000","place":{"id":"321883207898197","location":{"city":"Kathmandu","country":"Nepal","latitude":27.69183892,"longitude":85.31961736},"name":"Trade Tower Business Centre"}},{"id":"573602216029294","created_time":"2013-08-09T11:02:13+0000","place":{"id":"106085869430478","location":{"city":"Kathmandu","country":"Nepal","latitude":27.7,"longitude":85.3333},"name":"Kathmandu, Nepal"}},{"id":"554877387901777","created_time":"2013-06-29T17:07:14+0000","place":{"id":"397817923614861","location":{"city":"Kathmandu","country":"Nepal","latitude":27.715018692506,"located_in":"109596519161343","longitude":85.31093288567,"street":"Mandala Street, Sagarmatha Bazar, THAMEL","zip":"44600"},"name":"Mahabir's Center for Nepal Connection"}},{"id":"555475071175342","created_time":"2013-06-16T06:30:00+0000","place":{"id":"279388862129521","location":{"city":"Kathmandu","country":"Nepal","latitude":27.692654905,"longitude":85.31996807,"street":"THAPATHALI"},"name":"Thapathali Trade Tower"}},{"id":"518888214834028","created_time":"2013-04-07T15:46:29+0000","place":{"id":"226785327383997","location":{"latitude":27.677747516094,"longitude":85.290950351411,"street":"Tribhuvan University, Kathmandu, Nepal"},"name":"T.U Cricket Ground"}},{"id":"464027830320067","created_time":"2012-12-11T17:54:00+0000","place":{"id":"181286925263576","location":{"city":"Lalitpur","country":"Nepal","latitude":27.681961101807,"longitude":85.319793949417,"street":"Pulchowk, Lalitpur, Nepal"},"name":"Pulchowk Engineering Campus"}},{"id":"462262237163293","created_time":"2012-12-08T15:31:42+0000","place":{"id":"265041430204378","location":{"city":"Kathmandu","country":"Nepal","latitude":27.704885162987,"longitude":85.304719798219,"street":"Kathmandu"},"name":"White Ghumba"}},{"id":"445406745515509","created_time":"2012-10-28T03:52:15+0000","place":{"id":"410488692298617","location":{"city":"Morelia","country":"Mexico","latitude":19.69064044768,"longitude":-101.17816732096,"street":"BOULEVARD GARCIA DE LEON COL. CHAPULTEPEC #175"},"name":"Freedom"}}],"paging":{"cursors":{"before":"MTIwMDUzMDA3MDAwMzE2OQZDZD","after":"NDQ1NDA2NzQ1NTE1NTA5"}}}{"name":"Abhibandu Kafle","id":"698811410175040"}{"data":[{"name":"Dhruba Kedar Adhikari","id":"517557420"},{"name":"Manish Modi","id":"518695595"},{"name":"Pravin Raj Joshi","id":"539563054"},{"name":"B\u00e9cram Dhoju","id":"10152256490986592"},{"name":"Anish Shrestha","id":"695045141"},{"name":"Bhanubhakta Sigdel","id":"714230743"},{"name":"Ashish Thoplo Acharya","id":"10152356562793879"},{"name":"Ashwini Chaudhary","id":"831359885"},{"name":"Rabi Kiran Kafle","id":"1004423777"},{"name":"Nir Goldshlager","id":"1021051560"},{"name":"Akash Shrestha","id":"1116338436"},{"name":"Sulav Kafley","id":"10201934648744209"},{"name":"Madhu Sudan Sigdel","id":"10203260832059738"},{"name":"Sajjad Ahmad","id":"10203332786820753"},{"name":"Mohit Kumar","id":"10202114912414927"},{"name":"N B Sri Harsha","id":"10201830137657782"},{"name":"Deepak Gautam","id":"10203948633299091"},{"name":"Ganesh Pandey","id":"1337103239"},{"name":"Sushant Kafle","id":"1349229745"},{"name":"Raj Sukali","id":"1351902650"},{"name":"Aayush Shrestha","id":"10202702408946639"},{"name":"Sudip Kafle","id":"1409806538"},{"name":"Pritesh Acharya","id":"1482807551"},{"name":"Midusha Shrestha","id":"10205310433110124"},{"name":"Vivek Bansal","id":"1551189323"}],"paging":{"cursors":{"before":"QVFIUk5jdWdyUDRoMmF5STF0UE1LXzdqSkoyYXBBUHV6bzN4cUxZASENVa1lNZAnRZAd1d5YzRJeVVqY0Q2d3NLMllkczIZD","after":"QVFIUjcyUVB3UE5WR0VLeXhRNV81RExxdXozcWZAKR0c3UTNwVFc3NWV0UFhIbmw5bjI5NUMyLU12X0lMdm5RSEZAuRlIZD"},"next":"https:\/\/graph.facebook.com\/v2.8\/698811410175040\/friends?access_token=EAACEdEose0cBAF3lct2puajilgQOeJoEta7JMg8xbpj84DN0gtnlGfUQZAviNQ4OOGfoccSKwKjxyYerxVupmS5oOTcs4uNn64fMznAaJeNxKsJ1XlC65KdXf6aYUn2p7uS6B4g6W9ex7FdqCglk9ZBfS73JDOSqDaoLkyAVBvOFfjnRUV&limit=25&after=QVFIUjcyUVB3UE5WR0VLeXhRNV81RExxdXozcWZAKR0c3UTNwVFc3NWV0UFhIbmw5bjI5NUMyLU12X0lMdm5RSEZAuRlIZD"},"summary":{"total_count":997}}{"data":[{"id":"1200530070003169","created_time":"2016-08-08T16:02:44+0000","place":{"id":"108081209214649","location":{"city":"Las Vegas","country":"United States","latitude":36.175,"longitude":-115.136,"state":"NV"},"name":"Las Vegas, Nevada"}},{"id":"1131719506884226","created_time":"2016-05-02T04:40:12+0000","place":{"id":"144583188896732","location":{"city":"Geraldine","country":"United States","latitude":34.401347895128,"longitude":-86.066595143346,"state":"AL","street":"969 COUNTY ROAD 144","zip":"35975"},"name":"High Falls Park"}},{"id":"1131022880287222","created_time":"2016-05-01T03:23:43+0000","place":{"id":"144583188896732","location":{"city":"Geraldine","country":"United States","latitude":34.401347895128,"longitude":-86.066595143346,"state":"AL","street":"969 COUNTY ROAD 144","zip":"35975"},"name":"High Falls Park"}},{"id":"1039924319397079","created_time":"2015-12-14T03:01:56+0000","place":{"id":"115118348510011","location":{"city":"Huntsville","country":"United States","latitude":34.727175348158,"longitude":-86.590090474126,"state":"AL","street":"700 Monroe St SW","zip":"35801"},"name":"Von Braun Center"}},{"id":"1021617427894435","created_time":"2015-11-08T00:12:52+0000","place":{"id":"191211187576498","location":{"city":"Huntsville","country":"United States","latitude":34.695726769787,"longitude":-86.590889289748,"state":"AL","street":"3185 Leeman Ferry Rd SW","zip":"35801"},"name":"Huntsville Iceplex"}},{"id":"973973009325544","created_time":"2015-08-10T06:30:18+0000","place":{"id":"161564467243390","location":{"city":"Grand Canyon Village","country":"United States","latitude":36.110784253948,"located_in":"107717949250751","longitude":-115.17267054936,"state":"AZ","zip":"89109"},"name":"Grand Canyon National Park"}},{"id":"969983519724493","created_time":"2015-08-02T06:56:24+0000","place":{"id":"114952118516947","location":{"city":"San Francisco","country":"United States","latitude":37.775,"longitude":-122.418,"state":"CA"},"name":"San Francisco, California"}},{"id":"921715354551310","created_time":"2015-04-04T06:30:00+0000","place":{"id":"376952459124314","location":{"city":"Lalitpur","country":"Nepal","latitude":27.682283488083,"longitude":85.318526029587,"street":"Krishna Gali","zip":"44600"},"name":"Cafe Aamu"}},{"id":"921715351217977","created_time":"2015-04-04T06:30:00+0000","place":{"id":"376952459124314","location":{"city":"Lalitpur","country":"Nepal","latitude":27.682283488083,"longitude":85.318526029587,"street":"Krishna Gali","zip":"44600"},"name":"Cafe Aamu"}},{"id":"862884273767752","created_time":"2014-12-07T15:44:43+0000","place":{"id":"376952459124314","location":{"city":"Lalitpur","country":"Nepal","latitude":27.682283488083,"longitude":85.318526029587,"street":"Krishna Gali","zip":"44600"},"name":"Cafe Aamu"}},{"id":"792013380854842","created_time":"2014-09-19T11:11:20+0000","place":{"id":"707039879318624","location":{"city":"Kathmandu","country":"Nepal","latitude":27.586813932965,"longitude":85.255046258052,"street":"Chhaimale","zip":"00000"},"name":"Chhaimale Resort"}},{"id":"780775511978629","created_time":"2014-08-28T12:12:31+0000","place":{"id":"156124691215528","location":{"latitude":27.571117410728,"longitude":85.582646429353,"street":"Kavrepalanchok","zip":"00977"},"name":"Namo Buddha Monastery"}},{"id":"778072822248898","created_time":"2014-08-23T12:29:54+0000","place":{"id":"332656196892860","location":{"city":"Kathmandu","country":"Nepal","latitude":27.71509069,"longitude":85.31092591},"name":"Mahabir Dai Ko Restrurent Thamel"}},{"id":"768269786562535","created_time":"2014-08-04T12:58:19+0000","place":{"id":"247380758609419","location":{"city":"Kathmandu","country":"Nepal","latitude":27.707668652961,"longitude":85.325565716361,"street":"kamalpokhari"},"name":"Islington College"}},{"id":"753857608003753","created_time":"2014-07-08T16:20:42+0000","place":{"id":"199167563504934","location":{"latitude":27.6826334,"longitude":85.3148375},"name":"Bakhundol"}},{"id":"721710417885139","created_time":"2014-05-16T04:54:34+0000","place":{"id":"259261944194879","location":{"city":"Kathmandu","country":"Nepal","latitude":27.699571309688,"longitude":85.312898474483,"street":"Sundhara, Kathmandu, Nepal"},"name":"QFX Civil Mall"}},{"id":"697634290292752","created_time":"2014-04-02T12:51:46+0000","place":{"id":"259261944194879","location":{"city":"Kathmandu","country":"Nepal","latitude":27.699571309688,"longitude":85.312898474483,"street":"Sundhara, Kathmandu, Nepal"},"name":"QFX Civil Mall"}},{"id":"688810017841846","created_time":"2014-03-15T14:29:00+0000","place":{"id":"181286925263576","location":{"city":"Lalitpur","country":"Nepal","latitude":27.681961101807,"longitude":85.319793949417,"street":"Pulchowk, Lalitpur, Nepal"},"name":"Pulchowk Engineering Campus"}},{"id":"667529859969862","created_time":"2014-02-02T11:45:41+0000","place":{"id":"104052812964372","location":{"city":"Pokhara","country":"Nepal","latitude":28.2639,"longitude":83.9722,"zip":"33700 (WRPD), 33702, 33704, 33706, 33708, 33713"},"name":"Pokhara, Nepal"}},{"id":"646770568712458","created_time":"2013-12-26T14:44:26+0000","place":{"id":"426742357444936","location":{"city":"Kathmandu","country":"Nepal","latitude":27.716725636861,"longitude":85.3102145327,"street":"Thamel","zip":"44616"},"name":"Everest Irish Pub"}},{"id":"649524698437045","created_time":"2013-12-23T06:30:00+0000","place":{"id":"112869382061213","location":{"city":"Kakani","country":"Nepal","latitude":27.8167,"longitude":85.25},"name":"Kakani"}},{"id":"597507866972062","created_time":"2013-09-25T03:51:25+0000","place":{"id":"321883207898197","location":{"city":"Kathmandu","country":"Nepal","latitude":27.69183892,"longitude":85.31961736},"name":"Trade Tower Business Centre"}},{"id":"573602216029294","created_time":"2013-08-09T11:02:13+0000","place":{"id":"106085869430478","location":{"city":"Kathmandu","country":"Nepal","latitude":27.7,"longitude":85.3333},"name":"Kathmandu, Nepal"}},{"id":"554877387901777","created_time":"2013-06-29T17:07:14+0000","place":{"id":"397817923614861","location":{"city":"Kathmandu","country":"Nepal","latitude":27.715018692506,"located_in":"109596519161343","longitude":85.31093288567,"street":"Mandala Street, Sagarmatha Bazar, THAMEL","zip":"44600"},"name":"Mahabir's Center for Nepal Connection"}},{"id":"555475071175342","created_time":"2013-06-16T06:30:00+0000","place":{"id":"279388862129521","location":{"city":"Kathmandu","country":"Nepal","latitude":27.692654905,"longitude":85.31996807,"street":"THAPATHALI"},"name":"Thapathali Trade Tower"}},{"id":"518888214834028","created_time":"2013-04-07T15:46:29+0000","place":{"id":"226785327383997","location":{"latitude":27.677747516094,"longitude":85.290950351411,"street":"Tribhuvan University, Kathmandu, Nepal"},"name":"T.U Cricket Ground"}},{"id":"464027830320067","created_time":"2012-12-11T17:54:00+0000","place":{"id":"181286925263576","location":{"city":"Lalitpur","country":"Nepal","latitude":27.681961101807,"longitude":85.319793949417,"street":"Pulchowk, Lalitpur, Nepal"},"name":"Pulchowk Engineering Campus"}},{"id":"462262237163293","created_time":"2012-12-08T15:31:42+0000","place":{"id":"265041430204378","location":{"city":"Kathmandu","country":"Nepal","latitude":27.704885162987,"longitude":85.304719798219,"street":"Kathmandu"},"name":"White Ghumba"}},{"id":"445406745515509","created_time":"2012-10-28T03:52:15+0000","place":{"id":"410488692298617","location":{"city":"Morelia","country":"Mexico","latitude":19.69064044768,"longitude":-101.17816732096,"street":"BOULEVARD GARCIA DE LEON COL. CHAPULTEPEC #175"},"name":"Freedom"}}],"paging":{"cursors":{"before":"MTIwMDUzMDA3MDAwMzE2OQZDZD","after":"NDQ1NDA2NzQ1NTE1NTA5"}}}{"name":"Abhibandu Kafle","id":"698811410175040"}{"data":[{"name":"Dhruba Kedar Adhikari","id":"517557420"},{"name":"Manish Modi","id":"518695595"},{"name":"Pravin Raj Joshi","id":"539563054"},{"name":"B\u00e9cram Dhoju","id":"10152256490986592"},{"name":"Anish Shrestha","id":"695045141"},{"name":"Bhanubhakta Sigdel","id":"714230743"},{"name":"Ashish Thoplo Acharya","id":"10152356562793879"},{"name":"Ashwini Chaudhary","id":"831359885"},{"name":"Rabi Kiran Kafle","id":"1004423777"},{"name":"Nir Goldshlager","id":"1021051560"},{"name":"Akash Shrestha","id":"1116338436"},{"name":"Sulav Kafley","id":"10201934648744209"},{"name":"Madhu Sudan Sigdel","id":"10203260832059738"},{"name":"Sajjad Ahmad","id":"10203332786820753"},{"name":"Mohit Kumar","id":"10202114912414927"},{"name":"N B Sri Harsha","id":"10201830137657782"},{"name":"Deepak Gautam","id":"10203948633299091"},{"name":"Ganesh Pandey","id":"1337103239"},{"name":"Sushant Kafle","id":"1349229745"},{"name":"Raj Sukali","id":"1351902650"},{"name":"Aayush Shrestha","id":"10202702408946639"},{"name":"Sudip Kafle","id":"1409806538"},{"name":"Pritesh Acharya","id":"1482807551"},{"name":"Midusha Shrestha","id":"10205310433110124"},{"name":"Vivek Bansal","id":"1551189323"},{"name":"Prakash Aryal","id":"10204645610171188"},{"name":"Everest Kc","id":"1614216686"},{"name":"Shritam Bhowmick","id":"1767058290"},{"name":"Vamsi Jasti","id":"4727570325170"},{"name":"Bidhan Bhattarai","id":"100000029143373"},{"name":"NaVe ChhetRi","id":"100000035046566"},{"name":"Naman Nepal","id":"867269269951219"},{"name":"Prabesh Shrestha","id":"100000092297911"},{"name":"Sri Harsha","id":"100000097516848"},{"name":"Bikram Basnet","id":"875177999168007"},{"name":"Amol Zap","id":"100000362380355"},{"name":"Sagar Duwal","id":"838455746179302"},{"name":"Chandresh Gupta","id":"100000470709714"},{"name":"Sijan Bhandari","id":"100000494273532"},{"name":"Jiwan Khatiwada","id":"100000539991708"},{"name":"Devendra Saini","id":"888528307842812"},{"name":"Jigar Thakkar","id":"794268700603426"},{"name":"Sampat Sampat","id":"750288235002811"},{"name":"Akhil Reni","id":"100000672267687"},{"name":"Basava Gowda","id":"100000675407454"},{"name":"Tayyab Qadir","id":"100000695136652"},{"name":"Manoj Acharya","id":"733613413346623"},{"name":"Issam Rabhi","id":"100000945932234"},{"name":"Blinkms Ij","id":"100001087639544"},{"name":"Shaikh Abdullah","id":"100001180358617"},{"name":"Roshan Bhandari","id":"100001185973732"},{"name":"Lukka Pranay","id":"718899118162015"},{"name":"Rakesh Kumar","id":"100001818451919"},{"name":"Senthil Kumar M","id":"100001878560002"},{"name":"Nipun Somani","id":"100002064100238"},{"name":"Chandra Shekhar Pandey","id":"100002435031519"},{"name":"Samar Dhwoj Acharya","id":"100002946158587"},{"name":"Abhinav Mishra","id":"826411214139483"},{"name":"\u0938\u0902\u091c\u093f\u0935 \u0921\u093e\u0917\u0940","id":"687480634700040"},{"name":"Suba Sah","id":"612924898824205"},{"name":"Jaya Ram","id":"543969025720918"},{"name":"Patrik Fehren","id":"100003489420278"},{"name":"Ashish Dhaduk","id":"100003711694798"},{"name":"Subha Nath Kafle","id":"100003912534432"},{"name":"Sahad Nk","id":"100004128691489"},{"name":"Roy Castillo","id":"100004333381456"},{"name":"David Montenegro","id":"100004721081829"},{"name":"Override Angel","id":"319198428256130"},{"name":"John Mathew","id":"224186947782344"},{"name":"Naresh LamGade","id":"239262259609036"},{"name":"Moch Tohir","id":"100006478962857"}],"paging":{"cursors":{"before":"QVFIUk5jdWdyUDRoMmF5STF0UE1LXzdqSkoyYXBBUHV6bzN4cUxZASENVa1lNZAnRZAd1d5YzRJeVVqY0Q2d3NLMllkczIZD","after":"QVFIUi1hUkhOV3lVbEoxSVo2VmpjMEhaLUNNMVpCeXNqaW5DTUR6cmc2VjJXS3lIWG1Fbmg5dDV3Vlc0dndjOVViVklQYUxHSDdmZATByYjVaSFJkcExGa2J3"}},"summary":{"total_count":997}}{"name":"Abhibandu Kafle","id":"698811410175040"}{"data":[{"category":"Entrepreneur","name":"Gary Vaynerchuk","id":"51535068349"},{"category":"Author","name":"Brian Krebs","id":"119740914725557"},{"category":"Website","name":"Meninist","id":"315246365333830"},{"category":"Artist","name":"Whadda Fish","id":"985994968155421"},{"category":"Media\/News\/Publishing","name":"Quora","id":"255232486973"},{"category":"Comedian","name":"The Honest Page","id":"1700808496873024"},{"category":"Comedian","name":"Triumph the Insult Comic Dog","id":"877100145740743"},{"category":"Media\/News\/Publishing","name":"Power of Positivity","id":"107787352370"},{"category":"Entertainer","name":"Bhatti Guff","id":"502706616442974"},{"category":"Computers\/Internet Website","name":"Offensive Security - Official Page","id":"132187200151961"},{"category":"Company","name":"Facebook Careers","id":"1633466236940064"},{"category":"Community","name":"Cysinfo - Cyber Security Community","id":"595834570582243"},{"category":"Teacher","name":"Thich Nhat Hanh","id":"7691064634"},{"category":"Teacher","name":"Thich Nhat Hanh gems","id":"319228401438031"},{"category":"News\/Media Website","name":"Mashable - Business","id":"340410803690"},{"category":"Public Figure","name":"JP Sears","id":"961065217242674"},{"category":"Computers\/Technology","name":"Facebook CTF","id":"179091232292932"},{"category":"Other","name":"Cakes by Laura Beth","id":"805680026173765"},{"category":"Non-Profit Organization","name":"TheWhiteZone.ORG","id":"279023515484105"},{"category":"Arts\/Humanities Website","name":"Humans of New York","id":"102099916530784"},{"category":"Politician","name":"Ashvinee Kumar","id":"250811965078624"},{"category":"Games\/Toys","name":"Tropic Table Tennis","id":"164625903922183"},{"category":"University","name":"UC Berkeley","id":"10111634660"},{"category":"Public Figure","name":"John C. Maxwell","id":"48357502953"},{"category":"Politician","name":"Bernie Sanders","id":"124955570892789"},{"category":"TV Show","name":"Steins;Gate","id":"355799621164486"},{"category":"Community","name":"Bug Hunters Syndicate","id":"176468722538973"},{"category":"Website","name":"The Spiritual Bee","id":"265208820205549"},{"category":"Media\/News\/Publishing","name":"The Anti-Media","id":"156720204453023"},{"category":"Athlete","name":"Ricky Ponting","id":"1677458422500876"},{"category":"Internet\/Software","name":"Linode","id":"35181610036"},{"category":"Community","name":"Christmas Song","id":"927000614049533"},{"category":"Entertainment Website","name":"The Oatmeal","id":"220779885077"},{"category":"Public Figure","name":"James Altucher","id":"134815079933328"},{"category":"Media\/News\/Publishing","name":"The Logical Indian","id":"426895610773497"},{"category":"Community","name":"Anime Passion","id":"383536835169182"},{"category":"Entrepreneur","name":"Neil Patel","id":"139982863780"},{"category":"Design","name":"Design Labs","id":"554823924622626"},{"category":"Movie","name":"Shrek","id":"355374000182"},{"category":"News\/Media Website","name":"Techworm","id":"127048270825566"},{"category":"Business Service","name":"PFA East Coast Command Center","id":"665594263561221"},{"category":"Computers\/Technology","name":"Rigo Technology","id":"888902604514369"},{"category":"Government Organization","name":"U.S. Embassy, Nepal","id":"108560955847639"},{"category":"Education","name":"UAHuntsville","id":"69709317494"},{"category":"Engineering\/Construction","name":"Goodwill ES","id":"516799688467868"},{"category":"Media\/News\/Publishing","name":"Kaagmandu Magazine","id":"768784413134960"},{"category":"Education","name":"AECC Global","id":"266317873423703"},{"category":"Politician","name":"Dr. Baburam Bhattarai","id":"304641956339988"},{"category":"Website","name":"Full Net Worth","id":"1598797467055138"},{"category":"Product\/Service","name":"Sucuri Security","id":"106976436017527"},{"category":"Computers\/Technology","name":"Lishn","id":"1435124526738598"},{"category":"Computers\/Technology","name":"SecureCurve","id":"1731459043747268"},{"category":"Public Figure","name":"Bhawesh","id":"358713897648129"},{"category":"Website","name":"Facebook Hacker Cup","id":"133954286636768"},{"category":"Computers\/Technology","name":"Bug bounty trolls","id":"351571091718482"},{"category":"Organization","name":"LOCUS, IOE Pulchowk","id":"182605855243255"},{"category":"Public Figure","name":"Acharya Bal Krishna","id":"192639277447326"},{"category":"Computers\/Technology","name":"Information Technology Security Emergency Response Team - Nepal","id":"584663384994947"},{"category":"Company","name":"11Beep.com","id":"563280987094341"},{"category":"Computers\/Technology","name":"TrustedSec, LLC","id":"539813956129876"},{"category":"Fictional Character","name":"Software Engineers","id":"161426044025121"},{"category":"Product\/Service","name":"mile2","id":"290877529025"},{"category":"Public Figure","name":"\u0040phwd","id":"113702895386410"},{"category":"Community","name":"Hacktic","id":"678451415595599"},{"category":"Musician\/Band","name":"Bipul Chettri","id":"1389814294591382"},{"category":"TV Show","name":"MANGA BEATING HEART","id":"1511933769035001"},{"category":"Website","name":"8DICT","id":"303942386460644"},{"category":"Website","name":"One Piece Pirates","id":"737412999641488"},{"category":"Internet\/Software","name":"Attify","id":"557304417674982"},{"category":"Company","name":"Universities on Facebook","id":"143483439014410"},{"category":"Product\/Service","name":"nLocate","id":"401401566568058"},{"category":"Health\/Wellness Website","name":"The New York Times - Well - Health","id":"181548405298864"},{"category":"Science Website","name":"The New York Times - Science","id":"105307012882667"},{"category":"Media\/News\/Publishing","name":"The New York Times","id":"5281959998"},{"category":"Movie","name":"12 Angry Men Movie","id":"394775894009653"},{"category":"Author","name":"OSHO","id":"102176597068"},{"category":"Education","name":"Johns Hopkins University Information Security Institute","id":"371902189608010"},{"category":"Entrepreneur","name":"WolfenSteine IndiShell","id":"965096133506708"},{"category":"Education Website","name":"nixCraft","id":"126000117413375"},{"category":"Non-Governmental Organization (NGO)","name":"Heart Beat","id":"113327538740116"},{"category":"Education Website","name":"Grammarly","id":"139729956046003"},{"category":"Community","name":"\u092e \u0938\u094d\u0935\u0926\u0947\u0936\u0940","id":"318940528265069"},{"category":"Community","name":"The Hacker's Confessions","id":"248051835373502"},{"category":"Non-Profit Organization","name":"GRE General Test","id":"181546368536346"},{"category":"School","name":"Islington College","id":"128096227273200"},{"category":"Public Figure","name":"Secbarbie","id":"544627818929406"},{"category":"Movie","name":"12 Angry Men","id":"105634886138092"},{"category":"Community","name":"\/r\/netsec","id":"445805278795679"},{"category":"Internet\/Software","name":"OnePlus","id":"424613314311146"},{"category":"TV Show","name":"One Piece","id":"407653262645585"},{"category":"Engineering\/Construction","name":"Troll Pulchowk","id":"116399381901778"},{"category":"Non-Profit Organization","name":"USEF-Nepal EducationUSA Advising Center","id":"170722499610682"},{"category":"News\/Media Website","name":"Business Insider","id":"20446254070"},{"category":"Media\/News\/Publishing","name":"Entrepreneur","id":"35585623895"},{"category":"App Page","name":"Yellow Nepal","id":"468169746623947"},{"category":"Engineering\/Construction","name":"Locus-2014","id":"1432459403678923"},{"category":"Community","name":"Web Application Security Research","id":"650893604945251"},{"category":"Non-Profit Organization","name":"The ManKind Project","id":"95845568627"},{"category":"Comedian","name":"Cyanide & Happiness","id":"67400590475"},{"category":"Public Figure","name":"SQLi Gurus","id":"649870595094531"}],"paging":{"cursors":{"before":"NTE1MzUwNjgzNDkZD","after":"NjQ5ODcwNTk1MDk0NTMx"},"next":"https:\/\/graph.facebook.com\/v2.8\/698811410175040\/likes?access_token=EAACEdEose0cBAAXCljJXM5PvZBWRhNKZCu4oUpsFqPcBkWZAFfFcnWhP4XiqZClxZAOHIZBBqYVJQikAvuryNmnnddfsl8OM5amN8zIvczrxZAXZCaYhWbn8aEj0xVdYeNtIhsi5JUieZCuLE5E8ZBJXBEpF4ZCtZCbtmrTZAKDOeC3KMMebRjUZAmUoRQ&fields=category\u00252Cname&limit=100&after=NjQ5ODcwNTk1MDk0NTMx"}}{"data":[{"id":"1200530070003169","created_time":"2016-08-08T16:02:44+0000","place":{"id":"108081209214649","location":{"city":"Las Vegas","country":"United States","latitude":36.175,"longitude":-115.136,"state":"NV"},"name":"Las Vegas, Nevada"}},{"id":"1131719506884226","created_time":"2016-05-02T04:40:12+0000","place":{"id":"144583188896732","location":{"city":"Geraldine","country":"United States","latitude":34.401347895128,"longitude":-86.066595143346,"state":"AL","street":"969 COUNTY ROAD 144","zip":"35975"},"name":"High Falls Park"}},{"id":"1131022880287222","created_time":"2016-05-01T03:23:43+0000","place":{"id":"144583188896732","location":{"city":"Geraldine","country":"United States","latitude":34.401347895128,"longitude":-86.066595143346,"state":"AL","street":"969 COUNTY ROAD 144","zip":"35975"},"name":"High Falls Park"}},{"id":"1039924319397079","created_time":"2015-12-14T03:01:56+0000","place":{"id":"115118348510011","location":{"city":"Huntsville","country":"United States","latitude":34.727175348158,"longitude":-86.590090474126,"state":"AL","street":"700 Monroe St SW","zip":"35801"},"name":"Von Braun Center"}},{"id":"1021617427894435","created_time":"2015-11-08T00:12:52+0000","place":{"id":"191211187576498","location":{"city":"Huntsville","country":"United States","latitude":34.695726769787,"longitude":-86.590889289748,"state":"AL","street":"3185 Leeman Ferry Rd SW","zip":"35801"},"name":"Huntsville Iceplex"}},{"id":"973973009325544","created_time":"2015-08-10T06:30:18+0000","place":{"id":"161564467243390","location":{"city":"Grand Canyon Village","country":"United States","latitude":36.110784253948,"located_in":"107717949250751","longitude":-115.17267054936,"state":"AZ","zip":"89109"},"name":"Grand Canyon National Park"}},{"id":"969983519724493","created_time":"2015-08-02T06:56:24+0000","place":{"id":"114952118516947","location":{"city":"San Francisco","country":"United States","latitude":37.775,"longitude":-122.418,"state":"CA"},"name":"San Francisco, California"}},{"id":"921715354551310","created_time":"2015-04-04T06:30:00+0000","place":{"id":"376952459124314","location":{"city":"Lalitpur","country":"Nepal","latitude":27.682283488083,"longitude":85.318526029587,"street":"Krishna Gali","zip":"44600"},"name":"Cafe Aamu"}},{"id":"921715351217977","created_time":"2015-04-04T06:30:00+0000","place":{"id":"376952459124314","location":{"city":"Lalitpur","country":"Nepal","latitude":27.682283488083,"longitude":85.318526029587,"street":"Krishna Gali","zip":"44600"},"name":"Cafe Aamu"}},{"id":"862884273767752","created_time":"2014-12-07T15:44:43+0000","place":{"id":"376952459124314","location":{"city":"Lalitpur","country":"Nepal","latitude":27.682283488083,"longitude":85.318526029587,"street":"Krishna Gali","zip":"44600"},"name":"Cafe Aamu"}},{"id":"792013380854842","created_time":"2014-09-19T11:11:20+0000","place":{"id":"707039879318624","location":{"city":"Kathmandu","country":"Nepal","latitude":27.586813932965,"longitude":85.255046258052,"street":"Chhaimale","zip":"00000"},"name":"Chhaimale Resort"}},{"id":"780775511978629","created_time":"2014-08-28T12:12:31+0000","place":{"id":"156124691215528","location":{"latitude":27.571117410728,"longitude":85.582646429353,"street":"Kavrepalanchok","zip":"00977"},"name":"Namo Buddha Monastery"}},{"id":"778072822248898","created_time":"2014-08-23T12:29:54+0000","place":{"id":"332656196892860","location":{"city":"Kathmandu","country":"Nepal","latitude":27.71509069,"longitude":85.31092591},"name":"Mahabir Dai Ko Restrurent Thamel"}},{"id":"768269786562535","created_time":"2014-08-04T12:58:19+0000","place":{"id":"247380758609419","location":{"city":"Kathmandu","country":"Nepal","latitude":27.707668652961,"longitude":85.325565716361,"street":"kamalpokhari"},"name":"Islington College"}},{"id":"753857608003753","created_time":"2014-07-08T16:20:42+0000","place":{"id":"199167563504934","location":{"latitude":27.6826334,"longitude":85.3148375},"name":"Bakhundol"}},{"id":"721710417885139","created_time":"2014-05-16T04:54:34+0000","place":{"id":"259261944194879","location":{"city":"Kathmandu","country":"Nepal","latitude":27.699571309688,"longitude":85.312898474483,"street":"Sundhara, Kathmandu, Nepal"},"name":"QFX Civil Mall"}},{"id":"697634290292752","created_time":"2014-04-02T12:51:46+0000","place":{"id":"259261944194879","location":{"city":"Kathmandu","country":"Nepal","latitude":27.699571309688,"longitude":85.312898474483,"street":"Sundhara, Kathmandu, Nepal"},"name":"QFX Civil Mall"}},{"id":"688810017841846","created_time":"2014-03-15T14:29:00+0000","place":{"id":"181286925263576","location":{"city":"Lalitpur","country":"Nepal","latitude":27.681961101807,"longitude":85.319793949417,"street":"Pulchowk, Lalitpur, Nepal"},"name":"Pulchowk Engineering Campus"}},{"id":"667529859969862","created_time":"2014-02-02T11:45:41+0000","place":{"id":"104052812964372","location":{"city":"Pokhara","country":"Nepal","latitude":28.2639,"longitude":83.9722,"zip":"33700 (WRPD), 33702, 33704, 33706, 33708, 33713"},"name":"Pokhara, Nepal"}},{"id":"646770568712458","created_time":"2013-12-26T14:44:26+0000","place":{"id":"426742357444936","location":{"city":"Kathmandu","country":"Nepal","latitude":27.716725636861,"longitude":85.3102145327,"street":"Thamel","zip":"44616"},"name":"Everest Irish Pub"}},{"id":"649524698437045","created_time":"2013-12-23T06:30:00+0000","place":{"id":"112869382061213","location":{"city":"Kakani","country":"Nepal","latitude":27.8167,"longitude":85.25},"name":"Kakani"}},{"id":"597507866972062","created_time":"2013-09-25T03:51:25+0000","place":{"id":"321883207898197","location":{"city":"Kathmandu","country":"Nepal","latitude":27.69183892,"longitude":85.31961736},"name":"Trade Tower Business Centre"}},{"id":"573602216029294","created_time":"2013-08-09T11:02:13+0000","place":{"id":"106085869430478","location":{"city":"Kathmandu","country":"Nepal","latitude":27.7,"longitude":85.3333},"name":"Kathmandu, Nepal"}},{"id":"554877387901777","created_time":"2013-06-29T17:07:14+0000","place":{"id":"397817923614861","location":{"city":"Kathmandu","country":"Nepal","latitude":27.715018692506,"located_in":"109596519161343","longitude":85.31093288567,"street":"Mandala Street, Sagarmatha Bazar, THAMEL","zip":"44600"},"name":"Mahabir's Center for Nepal Connection"}},{"id":"555475071175342","created_time":"2013-06-16T06:30:00+0000","place":{"id":"279388862129521","location":{"city":"Kathmandu","country":"Nepal","latitude":27.692654905,"longitude":85.31996807,"street":"THAPATHALI"},"name":"Thapathali Trade Tower"}},{"id":"518888214834028","created_time":"2013-04-07T15:46:29+0000","place":{"id":"226785327383997","location":{"latitude":27.677747516094,"longitude":85.290950351411,"street":"Tribhuvan University, Kathmandu, Nepal"},"name":"T.U Cricket Ground"}},{"id":"464027830320067","created_time":"2012-12-11T17:54:00+0000","place":{"id":"181286925263576","location":{"city":"Lalitpur","country":"Nepal","latitude":27.681961101807,"longitude":85.319793949417,"street":"Pulchowk, Lalitpur, Nepal"},"name":"Pulchowk Engineering Campus"}},{"id":"462262237163293","created_time":"2012-12-08T15:31:42+0000","place":{"id":"265041430204378","location":{"city":"Kathmandu","country":"Nepal","latitude":27.704885162987,"longitude":85.304719798219,"street":"Kathmandu"},"name":"White Ghumba"}},{"id":"445406745515509","created_time":"2012-10-28T03:52:15+0000","place":{"id":"410488692298617","location":{"city":"Morelia","country":"Mexico","latitude":19.69064044768,"longitude":-101.17816732096,"street":"BOULEVARD GARCIA DE LEON COL. CHAPULTEPEC #175"},"name":"Freedom"}}],"paging":{"cursors":{"before":"MTIwMDUzMDA3MDAwMzE2OQZDZD","after":"NDQ1NDA2NzQ1NTE1NTA5"}}}{"data":[{"name":"Dhruba Kedar Adhikari","id":"517557420"},{"name":"Manish Modi","id":"518695595"},{"name":"Pravin Raj Joshi","id":"539563054"},{"name":"B\u00e9cram Dhoju","id":"10152256490986592"},{"name":"Anish Shrestha","id":"695045141"},{"name":"Bhanubhakta Sigdel","id":"714230743"},{"name":"Ashish Thoplo Acharya","id":"10152356562793879"},{"name":"Ashwini Chaudhary","id":"831359885"},{"name":"Rabi Kiran Kafle","id":"1004423777"},{"name":"Nir Goldshlager","id":"1021051560"},{"name":"Akash Shrestha","id":"1116338436"},{"name":"Sulav Kafley","id":"10201934648744209"},{"name":"Madhu Sudan Sigdel","id":"10203260832059738"},{"name":"Sajjad Ahmad","id":"10203332786820753"},{"name":"Mohit Kumar","id":"10202114912414927"},{"name":"N B Sri Harsha","id":"10201830137657782"},{"name":"Deepak Gautam","id":"10203948633299091"},{"name":"Ganesh Pandey","id":"1337103239"},{"name":"Sushant Kafle","id":"1349229745"},{"name":"Raj Sukali","id":"1351902650"},{"name":"Aayush Shrestha","id":"10202702408946639"},{"name":"Sudip Kafle","id":"1409806538"},{"name":"Pritesh Acharya","id":"1482807551"},{"name":"Midusha Shrestha","id":"10205310433110124"},{"name":"Vivek Bansal","id":"1551189323"},{"name":"Prakash Aryal","id":"10204645610171188"},{"name":"Everest Kc","id":"1614216686"},{"name":"Shritam Bhowmick","id":"1767058290"},{"name":"Vamsi Jasti","id":"4727570325170"},{"name":"Bidhan Bhattarai","id":"100000029143373"},{"name":"NaVe ChhetRi","id":"100000035046566"},{"name":"Naman Nepal","id":"867269269951219"},{"name":"Prabesh Shrestha","id":"100000092297911"},{"name":"Sri Harsha","id":"100000097516848"},{"name":"Bikram Basnet","id":"875177999168007"},{"name":"Amol Zap","id":"100000362380355"},{"name":"Sagar Duwal","id":"838455746179302"},{"name":"Chandresh Gupta","id":"100000470709714"},{"name":"Sijan Bhandari","id":"100000494273532"},{"name":"Jiwan Khatiwada","id":"100000539991708"},{"name":"Devendra Saini","id":"888528307842812"},{"name":"Jigar Thakkar","id":"794268700603426"},{"name":"Sampat Sampat","id":"750288235002811"},{"name":"Akhil Reni","id":"100000672267687"},{"name":"Basava Gowda","id":"100000675407454"},{"name":"Tayyab Qadir","id":"100000695136652"},{"name":"Manoj Acharya","id":"733613413346623"},{"name":"Issam Rabhi","id":"100000945932234"},{"name":"Blinkms Ij","id":"100001087639544"},{"name":"Shaikh Abdullah","id":"100001180358617"},{"name":"Roshan Bhandari","id":"100001185973732"},{"name":"Lukka Pranay","id":"718899118162015"},{"name":"Rakesh Kumar","id":"100001818451919"},{"name":"Senthil Kumar M","id":"100001878560002"},{"name":"Nipun Somani","id":"100002064100238"},{"name":"Chandra Shekhar Pandey","id":"100002435031519"},{"name":"Samar Dhwoj Acharya","id":"100002946158587"},{"name":"Abhinav Mishra","id":"826411214139483"},{"name":"\u0938\u0902\u091c\u093f\u0935 \u0921\u093e\u0917\u0940","id":"687480634700040"},{"name":"Suba Sah","id":"612924898824205"},{"name":"Jaya Ram","id":"543969025720918"},{"name":"Patrik Fehren","id":"100003489420278"},{"name":"Ashish Dhaduk","id":"100003711694798"},{"name":"Subha Nath Kafle","id":"100003912534432"},{"name":"Sahad Nk","id":"100004128691489"},{"name":"Roy Castillo","id":"100004333381456"},{"name":"David Montenegro","id":"100004721081829"},{"name":"Override Angel","id":"319198428256130"},{"name":"John Mathew","id":"224186947782344"},{"name":"Naresh LamGade","id":"239262259609036"},{"name":"Moch Tohir","id":"100006478962857"}],"paging":{"cursors":{"before":"QVFIUk5jdWdyUDRoMmF5STF0UE1LXzdqSkoyYXBBUHV6bzN4cUxZASENVa1lNZAnRZAd1d5YzRJeVVqY0Q2d3NLMllkczIZD","after":"QVFIUi1hUkhOV3lVbEoxSVo2VmpjMEhaLUNNMVpCeXNqaW5DTUR6cmc2VjJXS3lIWG1Fbmg5dDV3Vlc0dndjOVViVklQYUxHSDdmZATByYjVaSFJkcExGa2J3"}},"summary":{"total_count":997}}